[
  {
    "name": "Marosvásárhelyi vár",
    "city": "Marosvásárhely",
    "rating": 4.6,
    "category": "Historical",
    "price": 0.0,
    "year": 1492,
    "type": "",
    "lat": 46.5475,
    "lng": 24.5658,
    "description": "Marosvásárhely középkori vára a város központjában található. Falai között múzeumok és kiállítások várják a látogatókat.",
    "imageName": "vartemplom"
  },
  {
    "name": "Medve-tó",
    "city": "Szováta",
    "rating": 4.6,
    "category": "Natural",
    "price": 30.0,
    "year": 0,
    "type": "sós vizű tó",
    "lat": 46.5975,
    "lng": 25.0753,
    "description": "Európa legnagyobb heliotermikus tava, melynek vize gyógyhatású. Kedvelt fürdőhely.",
    "imageName": "medve_to"
  },
  {
    "name": "Teleki Téka",
    "city": "Marosvásárhely",
    "rating": 4.7,
    "category": "Historical",
    "price": 15.0,
    "year": 1802,
    "type": "",
    "lat": 46.5452,
    "lng": 24.5595,
    "description": "Gróf Teleki Sámuel által alapított történelmi könyvtár, több mint 200 000 kötettel.",
    "imageName": "teleki_teka"
  },
  {
    "name": "Bözödi-tó",
    "city": "Erdőszentgyörgy",
    "rating": 4.7,
    "category": "Natural",
    "price": 0.0,
    "year": 0,
    "type": "víztározó",
    "lat": 46.4780,
    "lng": 24.8720,
    "description": "Festői környezetben elhelyezkedő víztározó, népszerű horgász- és kirándulóhely.",
    "imageName": "bozod"
  },
  {
    "name": "Segesvári vár",
    "city": "Segesvár",
    "rating": 4.8,
    "category": "Historical",
    "price": 0.0,
    "year": 1350,
    "type": "",
    "lat": 46.2197,
    "lng": 24.7928,
    "description": "Erdély egyik legszebb és legjobb állapotban fennmaradt középkori vára, az UNESCO Világörökség része.",
    "imageName": "segesvar"
  },
  {
    "name": "Gyilkos-tó",
    "city": "Gyergyószentmiklós",
    "rating": 4.7,
    "category": "Natural",
    "price": 0.0,
    "year": 0,
    "type": "torlasztó",
    "lat": 46.7861,
    "lng": 25.7947,
    "description": "Természetes torlasztó, mely egy földcsuszamlás következtében keletkezett. Különlegessége a vízből kiálló facsonkok.",
    "imageName": "gyilkos_to"
  }
]